name,place_id,location,neighborhood,lat,lng,website,google_maps_url,rating,rating_count,categories_google,categories_verified,categories_source,verification_status,verification_confidence,types,scan_errors
Yoga With Kui,ChIJowgSwE8bLxgRetLR4zUVLTQ,"122 Bogani East Rd, Nairobi, Kenya",,-1.3537275,36.7525169,http://yogawithkui.com/,https://maps.google.com/?cid=3759684585123861114,5,(4),aerial; yoga; mind-body,aerial; yoga; mind-body,fallback_original,rejected,0.25,establishment; gym; health; point_of_interest,
Fluid Yoga & Wellness,ChIJ0ZA-Dq0ZLxgRAxC9NbqLnhw,"Ground Floor Greenwood Road, Nairobi, Kenya",,-1.2683686,36.8063526,http://www.fluid.ke/,https://maps.google.com/?cid=2062239311264026627,4.5,(8),aerial; gym-time; yoga; pilates; prenatal-postnatal; strength-training; stretching,aerial; gym-time; yoga; pilates; prenatal-postnatal; strength-training; stretching,fallback_original,rejected,0.25,establishment; gym; health; point_of_interest,[object Object]
BeatRoot Productions,ChIJw1I5x0oXLxgRCZmP7P5qh2g,"Universal TOWERS, 3rd Floor Mogotio Rd, Nairobi, Kenya",,-1.2642985,36.80772899999999,http://www.karunanilayam.org/,https://maps.google.com/?cid=7532106544923515145,5,(20),aerial; dance; yoga,aerial; dance; yoga,fallback_original,rejected,0.25,establishment; gym; health; point_of_interest,
Karuna Nilayam Yoga Studio,ChIJVbJSirAXLxgR2PElvpXOeE0,"Universal TOWERS, 3rd Floor Mogotio Rd, Nairobi, Kenya",,-1.2643443,36.8077506,http://www.karunanilayam.org/,https://maps.google.com/?cid=5582438880661336536,5,(1),aerial; yoga; stretching,aerial; yoga; stretching,fallback_original,rejected,0.25,establishment; gym; health; point_of_interest,
Sky And Earth Retreats,ChIJqdOYTdkXLxgR-2NUFfNj_-k,"Kolobot Rd, Nairobi, Kenya",,-1.2697434,36.8167458,https://skyandearthretreats.com/,https://maps.google.com/?cid=16861305425584481275,4.5,(4),aerial; yoga; stretching,aerial; yoga; stretching,fallback_original,rejected,0.25,establishment; point_of_interest,[object Object]
Ashtanga Yoga,ChIJE-euv_YXLxgRir8w3iwEgLA,"PRRC+VP7, Fifth Parklands Ave, Nairobi, Kenya",Parklands,-1.2578017,36.8217249,https://instagram.com/lornajaimes?igshid=OGQ5ZDc2ODk2ZA==,https://maps.google.com/?cid=12718169938447089546,,,aerial; yoga,aerial; yoga,fallback_original,rejected,0.25,establishment; gym; health; point_of_interest,
Panarts Technology Kenya Limited,ChIJrZ8sMpMRLxgR4hD9WRFYZyA,"Suite 6, Kenya Society for The Blind Building, Barclay House, Mai Mahiu Rd, Nairobi, Kenya",,-1.3148877,36.817587,http://www.panartstechnology.co.ke/,https://maps.google.com/?cid=2334931763362336994,4.5,(17),aerial,aerial,fallback_original,rejected,0.25,establishment; point_of_interest,[object Object]
Get a magnificent aerial view of the expansive Nairobi game Park from a balcony,ChIJh8IxC64RLxgRldhNEo9JzOs,"Nairobi, Kenya",,-1.3173949,36.8306237,https://www.us.despegar.com/hotels/h-5611529,https://maps.google.com/?cid=16991036372998281365,,,aerial,aerial,fallback_original,rejected,0.25,establishment; lodging; point_of_interest,[object Object]
Artika Dance Studios,ChIJ0-OMf2oRLxgRv6InaASNuSQ,"Adlife Plaza, Nairobi, Kenya",,-1.2949183,36.7873453,https://artikahub.com/dance,https://maps.google.com/?cid=2646301306123690687,5,(26),dance,dance,fallback_original,rejected,0.25,establishment; point_of_interest,[object Object]
Kamata Music School,ChIJOR_r5hIXLxgR9FfIRzzYtXM,"Queensway House, Kaunda St, Nairobi, Kenya",,-1.2851874,36.8234086,https://www.kamataschool.com/,https://maps.google.com/?cid=8337808038560290804,4.9,(1062),dance; prenatal-postnatal,dance; prenatal-postnatal,fallback_original,rejected,0.25,establishment; point_of_interest; school,[object Object]
BARRE,ChIJHSpVpsbGOxgRHmCZbYaFaZ4,"The Nextgen Mall, Nairobi, Kenya",,-1.3236086,36.8439428,http://barre.ke/,https://maps.google.com/?cid=11414801542958112798,4.6,(16),barre,barre,website_extracted,rejected,0.25,establishment; general_contractor; point_of_interest,
Meraki Apartment by Barre Homes.,ChIJBxJwFQARLxgROdrwZUUaDhA,"MRMJ+62J, Muhoho Ave, Nairobi, Kenya",,-1.3169232,36.8300103,http://www.barrehomes.co.ke/,https://maps.google.com/?cid=1156891039646145081,5,(1),barre,barre,fallback_original,rejected,0.25,establishment; point_of_interest,[object Object]
Qusini Savor & Stay,ChIJ1So0_fURLxgR-c8kVSZ3vKI,"Ole Shapara Ave, Nairobi, Kenya",,-1.3158472,36.8242435,https://qusini.ke/,https://maps.google.com/?cid=11726378536286867449,4.1,(30),barre,barre,fallback_original,rejected,0.25,establishment; lodging; point_of_interest,
GOMYCODE Nairobi,ChIJlSCEfsAXLxgRtF_VLrBDpok,"Lower Kabete Rd, Nairobi, Kenya",,-1.2547773,36.7973497,https://gomycode.com/,https://maps.google.com/?cid=9918689653309136820,4.9,(37),hiit-bootcamp,hiit-bootcamp,fallback_original,rejected,0.25,establishment; point_of_interest,[object Object]
Code With Kids,ChIJ2ef4UvMVLxgRcbtAm5CZYzw,"Kibera, Nairobi, Kenya",Kibera,-1.3127145,36.7784858,https://codewithkids.africa/,https://maps.google.com/?cid=4351490511329082225,4.7,(13),hiit-bootcamp,hiit-bootcamp,fallback_original,rejected,0.25,establishment; point_of_interest,
Weight Watchers Kenya Outdoor & Indoor Fitness,ChIJO65Dk6MQLxgRYMW-BgwkBsw,"Kibera Road, Off Ngong Rd, Nairobi, Kenya",Ngong,-1.3004184,36.7952508,http://www.weightwatchers.co.ke/,https://maps.google.com/?cid=14701477667668936032,4.3,(18),hiit-bootcamp; dance; strength-training; cycling; gym-time; outdoors; mind-body; stretching,hiit-bootcamp; dance; strength-training; cycling; gym-time; outdoors; mind-body; stretching,fallback_original,rejected,0.25,establishment; health; point_of_interest,[object Object]
Tunapanda Institute,ChIJkSl38YAaLxgRyTCbTSx9nTk,"00100, H-13, Nairobi, Kenya",,-1.3128075,36.7786041,http://www.tunapanda.org/,https://maps.google.com/?cid=4151612060739514569,4.7,(21),hiit-bootcamp,hiit-bootcamp,fallback_original,rejected,0.25,establishment; point_of_interest,[object Object]
Tech For Development,ChIJFyP5CJoXLxgRLOkOs9EgYhc,"Tala Road, Nairobi, Kenya",,-1.2315293,36.8386185,https://www.techfordevelopment.com/,https://maps.google.com/?cid=1684945295614339372,5,(23),hiit-bootcamp,hiit-bootcamp,fallback_original,rejected,0,establishment; point_of_interest,
Studio Fit,ChIJHXcAsnMXLxgRTmy2qv080vU,"Lenana Rd, Nairobi, Kenya",,-1.2893257,36.7953013,https://www.studiofit.shop/,https://maps.google.com/?cid=17713287344590056526,4.6,(19),hiit-bootcamp,hiit-bootcamp,fallback_original,rejected,0.25,clothing_store; establishment; point_of_interest; store,
Hyat Fitness - Kilimani,ChIJBwoCvs8RLxgRCxzFqKzyd1A,"4th Floor, 623 Wood Ave, North, Kenya",,-1.2924384,36.786115,http://www.hyatfitness.co.ke/,https://maps.google.com/?cid=5798369868642589707,4.6,(122),hiit-bootcamp; dance; strength-training; cycling; fitness; gym-time; martial-arts; personal-training,hiit-bootcamp; dance; strength-training; cycling; fitness; gym-time; martial-arts; personal-training,fallback_original,rejected,0.25,establishment; gym; health; point_of_interest,[object Object]
Kasarani boxing club,ChIJfZsnXAAVLxgRmoPVWO6dx8c,"Nairobi, Kenya",,-1.2307888,36.9201592,http://www.kasaraniboxingclub.co.ke/,https://maps.google.com/?cid=14395648380931244954,4.8,(6),boxing; martial-arts,boxing; martial-arts,fallback_original,rejected,0.25,establishment; health; point_of_interest,[object Object]
Peak Performance Gym,ChIJqzUvYPgbLxgRog20qSWddQE,"Kiambu Rd, Kiambu, Kenya",,-1.1724285,36.8302255,https://instagram.com/kemboi__amon?igshid=MjEwN2IyYWYwYw==,https://maps.google.com/?cid=105162951399574946,5,(12),boxing; martial-arts,boxing; martial-arts,fallback_original,rejected,0.25,establishment; gym; health; point_of_interest,
W Exclusive Wellness & Fitness,ChIJDadb7h8XLxgRqp5jTegHX5Y,"Mwanzi Road 3rd Floor, Westgate Shopping Mall 25552, Nairobi, Kenya",,-1.2567709,36.8033238,https://wgym.co.ke/,https://maps.google.com/?cid=10835387922788884138,4.3,(258),boxing; hiit-bootcamp; cycling; fitness; gym-time; martial-arts; personal-training; running; strength-training; stretching,boxing; hiit-bootcamp; cycling; fitness; gym-time; martial-arts; personal-training; running; strength-training; stretching,fallback_original,rejected,0.25,establishment; gym; health; point_of_interest,
Abaka Boxing Foundation,ChIJNfBkLhQaLxgRre2_kxNsiIg,"Mbaazi Rd, Nairobi, Kenya",,-1.2926616,36.7634835,http://abakaboxingfoundation.com/,https://maps.google.com/?cid=9838232217329855917,5,(2),boxing,boxing,fallback_original,rejected,0.25,establishment; point_of_interest,[object Object]
Millennium Gyms & Studios,ChIJYd75tH89LxgRUiTXx9DmGgQ,"Nairobi, Kenya",,-1.198515,36.8240982,https://www.millenniumgyms.co.ke/,https://maps.google.com/?cid=295802509926540370,4.7,(40),boxing; strength-training; cycling; gym-time; pilates; hiit-bootcamp; martial-arts; running,boxing; strength-training; cycling; gym-time; pilates; hiit-bootcamp; martial-arts; running,fallback_original,rejected,0.25,establishment; gym; health; point_of_interest,[object Object]
The Obris personal Trainer Kenya,ChIJMVkma7kZLxgRZvHArkcNoEY,"Ndumbuini shops, Fortsmith Rd, Nairobi, Kenya",,-1.2546884,36.7214679,https://theobrisfitness.com/,https://maps.google.com/?cid=5089082180454379878,4.8,(43),boxing; strength-training; cycling; hiit-bootcamp; personal-training,boxing; strength-training; cycling; hiit-bootcamp; personal-training,fallback_original,rejected,0.25,establishment; gym; health; point_of_interest,
Nuru Fitness Gym,ChIJJeGI3PoTLxgRr8Sn_m8pzH0,"Greenspan Mall, 2nd Floor, Nairobi, Kenya",,-1.2889512,36.9013585,http://www.nurufitness.co.ke/,https://maps.google.com/?cid=9064665710980482223,3.8,(15),dance; strength-training,dance; strength-training,fallback_original,rejected,0.25,establishment; gym; health; point_of_interest,
Aga Khan Sports Centre,ChIJeUcF30IXLxgRF67ZIaysxyU,"Mtama Rd, Nairobi, Kenya",,-1.259696,36.823719,https://www.aksc.co.ke/,https://maps.google.com/?cid=2722334355071020567,4.2,(276),dance; gym-time; running; stretching,dance; gym-time; running; stretching,fallback_original,rejected,0.25,establishment; health; hospital; point_of_interest,[object Object]
Sk8City Nairobi,ChIJH1RZH0cXLxgRu1-tTQtS6qM,"12th floor Diamond Plaza 2, Nairobi, Kenya",,-1.2582813,36.8190835,http://www.skatecitynairobi.co.ke/,https://maps.google.com/?cid=11811343181233872827,4.4,(221),dance,dance,fallback_original,rejected,0.25,establishment; point_of_interest,[object Object]
Parklands Sports Club,ChIJCw1PvzwXLxgRoXWWQXlwApI,"3, PRM7+9MV, 49 Parklands Rd, Nairobi, Kenya",Parklands,-1.2683794,36.812734,http://www.parklandssportsclub.org/,https://maps.google.com/?cid=10521095345584633249,4.4,(4492),dance; gym-time; martial-arts; running; stretching,dance; gym-time; martial-arts; running; stretching,fallback_original,rejected,0.25,establishment; point_of_interest,[object Object]
Jenga Fit Gym,ChIJlWfqC7QXLxgRTsIkPgt3oGc,"Mpesi lane Off Muthithi Road, Westlands, Nairobi, Kenya",Westlands,-1.2644749,36.8071156,https://www.jengaleo.co.ke/gym/,https://maps.google.com/?cid=7467099072351224398,4.9,(14),dance; cycling; fitness; gym-time; hiit-bootcamp; martial-arts; low-impact-training; personal-training; running; strength-training; stretching; yoga,dance; cycling; fitness; gym-time; hiit-bootcamp; martial-arts; low-impact-training; personal-training; running; strength-training; stretching; yoga,fallback_original,rejected,0.25,establishment; gym; health; point_of_interest,[object Object]
FitnessManiaGym Parklands,ChIJ-2GgGeMWLxgRyCTfhguPLc4,"City Park Dr, Nairobi, Kenya",,-1.2580714,36.8299801,https://www.myfitnessmania.com/,https://maps.google.com/?cid=14856688025435317448,4.4,(209),dance; cycling; fitness; gym-time; strength-training; stretching,dance; cycling; fitness; gym-time; strength-training; stretching,fallback_original,rejected,0.25,establishment; gym; health; point_of_interest,[object Object]
Z6 Crosstraining,ChIJFdOsDpIbLxgReZu4MIWd9JI,"Alpha Fit along, VMX Fitness at Village Market, AfroFit Gym in Westlands, Ngong Rd, Nairobi, Kenya",Westlands,-1.3022219,36.7728706,http://www.z6crosstraining.com/,https://maps.google.com/?cid=10589261819228494713,5,(10),strength-training,strength-training,fallback_original,rejected,0.25,establishment; gym; health; point_of_interest,
"Kuona Artists collective, Centre for the Visual Arts",ChIJ9aVmlq4QLxgR-4wQgjcRDxE,"Likoni Cl, Nairobi, Kenya",,-1.284466,36.7888362,http://www.kuonatrust.org,https://maps.google.com/?cid=1229220153398430971,4.5,(772),dance; strength-training,dance; strength-training,fallback_original,rejected,0.25,establishment; point_of_interest,[object Object]
Black Samurai Lounge,ChIJCelpCSgRLxgRWS1fNP7IZ1c,"Maralal Oasis, Rose Ave, Nairobi, Kenya",,-1.294313,36.795313,https://instagram.com/blacksamurailounge?igshid=OGQ5ZDc2ODk2ZA==&utm_source=qr,https://maps.google.com/?cid=6298223598026829145,4.4,(689),dance,dance,fallback_original,rejected,0.25,bar; establishment; food; night_club; point_of_interest; restaurant,
The Alchemist,ChIJr9P-KRUXLxgR4Wn6jx1lv9A,"Parklands Rd, Nairobi, Kenya",Parklands,-1.2625724,36.8039327,https://alchemist254.com/,https://maps.google.com/?cid=15041852458084755937,4.3,(6192),dance,dance,fallback_original,rejected,0,bar; establishment; food; point_of_interest; shopping_mall,
"Art & Soul Lounge, Nairobi",ChIJs7eHWZNPLxgR9g3bfXTPxe0,"Ngong Rd, Nairobi, Kenya",Ngong,-1.301029,36.7856745,http://wwww.ngonghillshotel.com/,https://maps.google.com/?cid=17133328456635583990,4.3,(629),dance,dance,fallback_original,rejected,0.25,bar; establishment; food; point_of_interest; restaurant,[object Object]
CrossFit Boveda,ChIJL8FOlM09LxgRxsQHcEtdTs0,"Kiambu Rd, Kenya",,-1.2012983,36.8303849,https://crossfitboveda.co.ke/,https://maps.google.com/?cid=14793864404542145734,4.9,(10),hiit-bootcamp; cycling,hiit-bootcamp; cycling,fallback_original,rejected,0.25,establishment; gym; health; point_of_interest,
46 Rooftop Fitness Hub,ChIJH5ulGxQbLxgRrV-8sRtXqYs,"46 Residency Building, Gitanga Rd, Nairobi, Kenya",,-1.2848053,36.7433169,https://46fitnesshub.co.ke/,https://maps.google.com/?cid=10063670618793729965,5,(20),hiit-bootcamp; dance,hiit-bootcamp; dance,fallback_original,rejected,0.25,establishment; gym; health; point_of_interest,[object Object]
Bikes and Accessories Kenya,ChIJC7sT3s49LxgR6bIumXMq3GY,"Total, Nairobi, Kenya",,-1.2108494,36.78960180000001,https://instagram.com/bikes_accessories_ke,https://maps.google.com/?cid=7411845762724573929,4.9,(65),cycling,cycling,fallback_original,rejected,0.25,bicycle_store; establishment; point_of_interest; store,
Gravel Riders Club,ChIJgSCxqMQTLxgRGuYK1hYAHb8,"Nairobi, Kenya",,-1.2908031,36.8906475,http://www.gravelriders.club/,https://maps.google.com/?cid=13771163333649163802,4.7,(26),cycling,cycling,fallback_original,rejected,0.25,establishment; point_of_interest,[object Object]
RVO Cycling,ChIJLwxUdcwXLxgRMX3y7pefNAE,"Homecare Hardware Gigiri Lane, Nairobi, Kenya",Gigiri,-1.2324214,36.8072496,http://www.riftvalleyodyssey.com/,https://maps.google.com/?cid=86869767724629297,5,(3),cycling,cycling,fallback_original,rejected,0.25,bicycle_store; establishment; point_of_interest; store,[object Object]
"Misitu Raha (Raha Tele!), Karen.",ChIJA_RViq8bLxgRw6CwWTPR2y4,"Forest Edge Rd, Nairobi, Kenya",,-1.3288371,36.767539,http://www.instagram.com/misitu.raha,https://maps.google.com/?cid=3376522364122603715,4.7,(20),cycling,cycling,fallback_original,rejected,0.25,establishment; point_of_interest,
The Oloolua Nature Trail,ChIJ36-Ncr4ELxgRW7Dk46I5wY4,"Oloolua Forest, Karen Rd, Nairobi, Kenya",Karen,-1.3597542,36.7124083,http://www.primateresearch.org/index.php/about-us/oloolua-nature-trail,https://maps.google.com/?cid=10286566395661824091,4.5,(2882),cycling,cycling,fallback_original,rejected,0.25,establishment; park; point_of_interest; tourist_attraction,
Mobile bicycle garage,ChIJz8GFBToXLxgR1dgI8Ez9MDw,"Kipande Rd, Nairobi, Kenya",,-1.2770944,36.821114,http://mobilebicyclegarage.com/,https://maps.google.com/?cid=4337244948044241109,5,(5),cycling,cycling,fallback_original,rejected,0.25,establishment; point_of_interest,[object Object]
Level 24 Gym and Fitness Centre,ChIJY_im210XLxgRpNoke6pAfww,"Le'Mac, Church Rd, Nairobi, Kenya",,-1.2616018,36.7893599,http://www.level24.life/,https://maps.google.com/?cid=900509551452019364,4.2,(106),cycling; fitness; gym-time; strength-training,cycling; fitness; gym-time; strength-training,fallback_original,rejected,0.25,establishment; gym; health; point_of_interest,[object Object]
Distverse Kids Academy,ChIJzwnMJHQRLxgR19St5M6-QwM,"MQQM+FCF, Nairobi, Kenya",,-1.3112289,36.7835645,https://www.tiktok.com/@distversedanceacademy?is_from_webapp=1&sender_device=pc,https://maps.google.com/?cid=235241401362535639,5,(3),dance,dance,fallback_original,rejected,0.25,establishment; point_of_interest,
Ibiza,ChIJsWJrUu4ZLxgRIOan2C0ObO0,"PQCC+23, Nairobi, Kenya",,-1.2802429,36.7702109,https://instagram.com/ibiza_254?igshid=MWQ1ZGUxMzBkMA==,https://maps.google.com/?cid=17108064674544870944,4.2,(443),dance,dance,fallback_original,rejected,0.25,establishment; night_club; point_of_interest,
Dance 66 academy,ChIJl6VK5iYZLxgRTmygQIoZ5Vk,"mall, Nairobi, Kenya",,-1.2675639,36.7307625,http://leonellenty.websites.co.in/,https://maps.google.com/?cid=6477611720622763086,,,dance,dance,fallback_original,rejected,0.25,establishment; point_of_interest,
NAIROBI INSTITUTE OF MUSIC & PERFORMING ARTS - NIMPA,ChIJJYRk_WM_LxgRL5PImPvBbQA,"Zimmerman Base Road, Nairobi, Kenya",Zimmerman,-1.2053009,36.8940442,http://www.nimpa.ac.ke/,https://maps.google.com/?cid=30894058805695279,4.8,(30),dance,dance,fallback_original,rejected,0.25,establishment; point_of_interest,[object Object]
CheckUps Medical Center,ChIJX91a7zURLxgRXgIYNWMITR8,"Rear Block, General Accident House, Nairobi, Kenya",,-1.2960508,36.807238,https://checkupsmed.com/,https://maps.google.com/?cid=2255468210568036958,4.2,(70),electrical-muscle-stimulation,electrical-muscle-stimulation,fallback_original,rejected,0.25,establishment; health; hospital; point_of_interest,
Kenya Red Cross Training Institute,ChIJKUIVz7cRLxgR2k5HDGOKo0s,"Red Cross Rd, Nairobi, Kenya",,-1.3255151,36.8335813,https://www.krcti.ac.ke/,https://maps.google.com/?cid=5450352132060827354,4.7,(83),electrical-muscle-stimulation,electrical-muscle-stimulation,fallback_original,rejected,0,establishment; point_of_interest; university,
Nairobi Institute of Medical and Emergency Training (NIMET College),ChIJY4kq_WwRLxgR7CKFPQD2su4,"Mkoma Road, Off Kapiti Rd, Nairobi, Kenya",,-1.3108546,36.8365234,https://www.nimet.ac.ke/,https://maps.google.com/?cid=17200080407773913836,5,(1),electrical-muscle-stimulation,electrical-muscle-stimulation,fallback_original,rejected,0.25,establishment; point_of_interest; university,
EMT College,ChIJZ_3xlvAbLxgRUtbRVuNtLWE,"Naivasha Rd, Nairobi, Kenya",,-1.2830338,36.7369165,https://emtc.co.ke/,https://maps.google.com/?cid=7002373818812585554,,,electrical-muscle-stimulation,electrical-muscle-stimulation,fallback_original,rejected,0,establishment; point_of_interest; university,
St John Ambulance,ChIJTXdG_FoRLxgRYuO73VOYTmI,"St Johns Lane, St. John's House, Off Parliament Rd, Nairobi, Kenya",,-1.2912898,36.8208765,http://stjohnkenya.org/,https://maps.google.com/?cid=7083766749870154594,3.8,(16),electrical-muscle-stimulation,electrical-muscle-stimulation,fallback_original,rejected,0.25,establishment; health; point_of_interest; store,
AAR Healthcare Training Center,ChIJqxbpkigRLxgRKlA21T0eW-s,"Transnational Plaza, 3rd Floor Mama Ngina St, Starehe, Kenya",,-1.28598,36.82323,https://www.aar-healthcare.com/ke/,https://maps.google.com/?cid=16959182072712679466,,,electrical-muscle-stimulation,electrical-muscle-stimulation,fallback_original,rejected,0.25,establishment; point_of_interest,[object Object]
Habib Fitness Institute,ChIJw96gsKwRLxgR32VUBK-5ONk,"Nation Centre, 13th Floor Kimathi St, Nairobi, Kenya",,-1.2840677,36.8231152,https://www.habibfitnessinstitute.com/,https://maps.google.com/?cid=15652464666269214175,5,(4),fitness; personal-training,fitness; personal-training,fallback_original,rejected,0.25,establishment; gym; health; point_of_interest,[object Object]
Henry's Fitness Gym and Training Institute,ChIJOWjj2e8TLxgR9eZ7CBYPJtQ,"Nairobi, Kenya",,-1.2867108,36.8807847,http://henrysfitness.com/,https://maps.google.com/?cid=15286922572461762293,4.6,(90),fitness; strength-training,fitness; strength-training,fallback_original,rejected,0.25,establishment; gym; health; point_of_interest,
Encore Fitness Studio,ChIJs3nbPVQTLxgRgoMHolMDuKg,"2nd Floor, Quickmart Buruburu Building, Suite No. 228, Nairobi, Kenya",Buruburu,-1.2879059,36.8813967,https://www.instagram.com/encorefitnessstudio/,https://maps.google.com/?cid=12157470851822224258,4.9,(9),fitness; gym-time; hiit-bootcamp; martial-arts; personal-training; strength-training; dance,fitness; gym-time; hiit-bootcamp; martial-arts; personal-training; strength-training; dance,fallback_original,rejected,0.25,establishment; gym; health; point_of_interest,
TRM - Thika Road Mall,ChIJZ4pnVck_LxgRKpesRnfgMCw,"Nairobi, Kenya",,-1.2195761,36.88842440000001,https://www.trm.co.ke/,https://maps.google.com/?cid=3184291739442386730,4.4,(29224),gym-time,gym-time,fallback_original,rejected,0.25,establishment; furniture_store; home_goods_store; point_of_interest; shopping_mall; store,[object Object]
Royal Nairobi Golf Club,ChIJ0csNd5EQLxgRTJa63X3DI8Y,"Ngong Rd, Nairobi, Kenya",Ngong,-1.301267,36.797323,http://www.royalnairobigc.com/,https://maps.google.com/?cid=14277470189052925516,4.5,(2690),gym-time,gym-time,website_extracted,rejected,0.25,bar; establishment; food; gym; health; point_of_interest; restaurant; spa,
7outdoor-lordes,ChIJuzrtm2BtLxgREA7AWX7E75w,"HH TOWER, Nairobi, Kenya",,-1.2833752,36.8232181,https://7outdoorlordes.com/,https://maps.google.com/?cid=11308473236301286928,4.8,(198),boxing; outdoors,boxing; outdoors,fallback_original,rejected,0,establishment; point_of_interest; store,
JDHAA | home_254,ChIJTRGE9c4WLxgRfOenfrsf-t8,"COLLEGE HOUSE 1, Ground Floor University Wy, Nairobi, Kenya",,-1.2810384,36.816945,http://www.homeapparel254.com/,https://maps.google.com/?cid=16139247104779872124,4.5,(425),boxing,boxing,fallback_original,rejected,0,clothing_store; establishment; point_of_interest; store,
Osona Yarns,ChIJV0-TTcsRLxgRjYijsPsUtJY,"Caxton House, ground floor, koinange street opposite Huduma centre round gpo, Dynamic mall, ground floor SL 16, opposite ambassador Hotel Tom Mboya Street, Nairobi, Kenya",,-1.2859854,36.8198067,http://www.osonayarns.com/,https://maps.google.com/?cid=10859327672729962637,4.9,(510),boxing,boxing,fallback_original,rejected,0.25,establishment; point_of_interest; store,
Lexy Worldwide Store,ChIJ_bGens0RLxgRhGvupW1Hwko,"Nairobi, Kenya",,-1.281828,36.8254611,http://www.facebook.com/lexyworldwide/store,https://maps.google.com/?cid=5386946640549407620,5,(4),boxing,boxing,fallback_original,rejected,0.25,establishment; point_of_interest; store,[object Object]
Shopit,ChIJUfLUW9YQLxgR5sJu7k79d4s,"International House, 8th floor Mama Ngina St, Nairobi, Kenya",,-1.2858173,36.8237324,https://shopit.co.ke/,https://maps.google.com/?cid=10049779608950063846,3.9,(127),boxing,boxing,fallback_original,rejected,0.25,electronics_store; establishment; health; point_of_interest; store,[object Object]
Naivas Supermarket - Moi Avenue Nairobi,ChIJ4avudNYQLxgRVi7l2ITlY1c,"Moi Avenue Opposite Imenti House Junction of Kenyatta Avenue and, Moi Ave, Nairobi, Kenya",,-1.2836592,36.8236195,https://naivas.online/,https://maps.google.com/?cid=6297129062731427414,4.3,(7304),boxing,boxing,fallback_original,rejected,0.25,establishment; food; grocery_or_supermarket; point_of_interest; store; supermarket,[object Object]
Westgate Shopping Mall,ChIJHahFUm0XLxgRRNKY1sbJgGk,"18 Mwanzi Rd, Nairobi, Kenya",,-1.2569454,36.8036672,https://www.westgate.co.ke/,https://maps.google.com/?cid=7602298026842444356,4.5,(16393),boxing,boxing,fallback_original,rejected,0,establishment; point_of_interest; shopping_mall,
Naivas Foodmarket - Westlands,ChIJ-w8MDkAXLxgR5uRyZ-I0VKI,"Waiyaki Wy, Nairobi, Kenya",,-1.2647819,36.8026876,https://naivas.online/,https://maps.google.com/?cid=11697032279190856934,4.3,(7824),boxing,boxing,fallback_original,rejected,0.25,establishment; food; grocery_or_supermarket; point_of_interest; store; supermarket,[object Object]
"Naivas Supermarket - Survey, Thika Rd",ChIJpYU5s9QVLxgRUXmpHc_hJZE,"Near Top Brass Building, QV2C+QG, Outer Ring Rd, Nairobi, Kenya",,-1.2495045,36.8615193,https://naivas.online/,https://maps.google.com/?cid=10459013989309970769,4.3,(4235),boxing,boxing,fallback_original,rejected,0.25,establishment; food; grocery_or_supermarket; point_of_interest; shopping_mall; store; supermarket,[object Object]
Naivas Foodmarket - Capital Centre,ChIJh-tZma8RLxgRXoQelRHB_ms,"Capital Centre, Mombasa Road, Nairobi, Kenya",,-1.3166543,36.8345953,https://naivas.online/,https://maps.google.com/?cid=7781869487403205726,4.4,(4998),boxing,boxing,fallback_original,rejected,0.25,establishment; food; grocery_or_supermarket; point_of_interest; store; supermarket,[object Object]
Carrefour Sarit Center,ChIJNaaha2sXLxgR1qySr_PDa8w,"Sarit Center, Karuna Rd, Nairobi, Kenya",,-1.2608784,36.8016686,http://www.carrefourkenya.com/,https://maps.google.com/?cid=14730082457635433686,4.5,(6299),boxing,boxing,fallback_original,rejected,0.25,establishment; food; grocery_or_supermarket; point_of_interest; store; supermarket,[object Object]
LiveEasy Products Ltd,ChIJpcRUX8cXLxgRw7TvIt0-l9E,"Mpaka Plaza, Mpaka Rd, Nairobi, Kenya",,-1.2648485,36.8051541,https://liveeasy.co.ke/,https://maps.google.com/?cid=15102608994905076931,5,(263),boxing,boxing,fallback_original,rejected,0,establishment; point_of_interest,
Kogo Wines and Spirits,ChIJwe0uc_ERLxgRgo4Yqs661YA,"Kogo Star Plaza, Mai Mahiu Rd, Nairobi, Kenya",,-1.314623,36.8165659,https://www.instagram.com/kogowines,https://maps.google.com/?cid=9283531603673910914,4.9,(37),boxing,boxing,fallback_original,rejected,0.25,establishment; point_of_interest; store,
Quick Mart Lavington,ChIJdw_ZNIAbLxgR43gPy4WJLX8,"WestField Mall, 34 Gitanga Rd, Nairobi, Kenya",,-1.2899574,36.7735556,https://www.quickmart.co.ke/,https://maps.google.com/?cid=9164132024499271907,4.4,(4503),boxing,boxing,fallback_original,rejected,0,establishment; food; grocery_or_supermarket; point_of_interest; shopping_mall; store,
Naivas Foodmarket - Kilimani Mall,ChIJc98w6zcRLxgR-n6jx4Di7gc,"Tigoni Rd, Nairobi, Kenya",,-1.2910086,36.7881817,https://naivas.online/,https://maps.google.com/?cid=571643245455703802,4.4,(1258),boxing,boxing,fallback_original,rejected,0.25,establishment; food; grocery_or_supermarket; point_of_interest; store; supermarket,[object Object]
Naivas Supermarket-Eastgate Donholm,ChIJ76_xdToTLxgRqQdticr2tU8,"Outering rd, Nairobi, Kenya",,-1.2958756,36.8872169,https://naivas.online/,https://maps.google.com/?cid=5743768249530386345,4.3,(4403),boxing,boxing,fallback_original,rejected,0.25,establishment; food; grocery_or_supermarket; point_of_interest; store; supermarket,[object Object]
Naivas Foodmarket - The Point Buruburu,ChIJxRb6hN0TLxgRbrVrKaSzuMQ,"Nairobi, Kenya",,-1.2938373,36.8761327,https://naivas.online/,https://maps.google.com/?cid=14175277344799569262,4.4,(4067),boxing,boxing,fallback_original,rejected,0.25,establishment; food; grocery_or_supermarket; point_of_interest; store; supermarket,[object Object]
QuickMart - Kilimani,ChIJ57Nx5fYRLxgR-aztan97z_I,"360 Kilimani Rd, Nairobi, Kenya",Kilimani,-1.2983013,36.7832031,https://quickmart.co.ke/,https://maps.google.com/?cid=17496338864542690553,4.5,(2604),boxing,boxing,fallback_original,rejected,0.25,establishment; food; grocery_or_supermarket; point_of_interest; store; supermarket,[object Object]
Naivas Supermarket - Ronald Ngala Nairobi,ChIJp_FU_ygRLxgR88e73DbqQQs,"PR7H+M2V, Ronald Ngala St, Nairobi, Kenya",,-1.285673,36.827768,http://www.naivas.online/,https://maps.google.com/?cid=811186929255827443,4.2,(4284),boxing,boxing,fallback_original,rejected,0.25,establishment; food; grocery_or_supermarket; point_of_interest; store; supermarket,[object Object]
Naivas Foodmarket - Broadwalk Mall,ChIJGTVmqnYXLxgRHT6FtwDI__M,"PRH7+J4W, Ojijo Rd, Nairobi, Kenya",,-1.2708912,36.812842,http://www.naivas.online/,https://maps.google.com/?cid=17581991375682223645,4.5,(472),boxing,boxing,fallback_original,rejected,0.25,establishment; food; grocery_or_supermarket; point_of_interest; store,[object Object]
Naivas Foodmarket- Lifestyle Nairobi,ChIJS-RtV9QRLxgR-ix0liYijnY,"Ground Floor, Hazina Trade Centre Building, Monrovia St, Nairobi, Kenya",,-1.2817329,36.8183403,http://www.naivas.online/,https://maps.google.com/?cid=8542803092296707322,4.4,(1406),boxing,boxing,fallback_original,rejected,0.25,establishment; food; grocery_or_supermarket; point_of_interest; store; supermarket,[object Object]
Carrefour Market Westgate,ChIJoW21T0IXLxgRF30MHWrQwy0,"Westgate Shopping Mall, Nairobi, Kenya",,-1.2567709,36.8033238,https://www.carrefourkenya.com/,https://maps.google.com/?cid=3297708506337803543,4.5,(1554),boxing,boxing,fallback_original,rejected,0.25,establishment; food; grocery_or_supermarket; point_of_interest; store; supermarket,[object Object]
Naivas Supermarket - Freedom Heights Mall Langata,ChIJzSJxWrYRLxgRa-jE_bDOcmo,"Nairobi West, Nairobi, Kenya",,-1.3219225,36.8020164,https://naivas.online/,https://maps.google.com/?cid=7670420374932482155,4.4,(1294),boxing,boxing,fallback_original,rejected,0.25,establishment; food; grocery_or_supermarket; point_of_interest; store; supermarket,
Naivas Foodmarket - Prestige Plaza,ChIJY6i0nMYRLxgRsd4gJVAbCl4,"Ngong Road Prestige Plaza Shopping Mall, Nairobi, Kenya",Ngong Road,-1.3000633,36.7870688,https://naivas.online/,https://maps.google.com/?cid=6776258620366577329,4.5,(1892),boxing,boxing,fallback_original,rejected,0.25,establishment; food; grocery_or_supermarket; point_of_interest; store; supermarket,
Quick Mart Mfangano,ChIJr0bA8YwRLxgRx5dScM_HkJM,"13789 Mfangano St, Nairobi, Kenya",,-1.2876892,36.8282345,https://www.quickmart.co.ke/,https://maps.google.com/?cid=10633218413978359751,4.3,(2586),boxing,boxing,fallback_original,rejected,0,establishment; food; grocery_or_supermarket; point_of_interest; store; supermarket,
Studio Plume Kenya,ChIJPY6p-bIXLxgRNBOqmptnKQo,"Square Luxury Mall (Annex, 2 Red Hill Rd, Nairobi, Kenya",,-1.2266689,36.7972737,http://www.studioplumekenya.com/,https://maps.google.com/?cid=732230332436845364,5,(10),pilates; prenatal-postnatal; reformer-pilates; strength-training,pilates; prenatal-postnatal; reformer-pilates; strength-training,fallback_original,rejected,0.25,establishment; gym; health; point_of_interest,[object Object]
Mike Wambati,ChIJ2are7sgRLxgRISI_2wrcJeQ,"Nairobi, Kenya",,-1.2892786,36.7869311,https://youtube.com/c/MikeWambati,https://maps.google.com/?cid=16439787953971995169,,,hiit-bootcamp; martial-arts,hiit-bootcamp; martial-arts,fallback_original,rejected,0.25,establishment; health; point_of_interest,
Sarabi Rooftop,ChIJdfO2JGsXLxgRAze3-82sgPE,"Sankara Nairobi, 05 Woodvale Grv, Nairobi, Kenya",,-1.2621976,36.8025034,https://sankara.com/dining/sarabi-rooftop-bar/,https://maps.google.com/?cid=17402098960850958083,4.4,(455),dance,dance,fallback_original,rejected,0.25,bar; establishment; food; point_of_interest; restaurant,[object Object]
Dancing Spoon Restaurant,ChIJwc9OrNcQLxgRoUSCoceoOuM,"Nairobi Central Mama Ngina St 20th Century Bldg, Starehe, Kenya",,-1.2857181,36.8227121,https://www.dancingspoon.co.ke/,https://maps.google.com/?cid=16373584970620486817,4.2,(49),dance,dance,fallback_original,rejected,0.25,establishment; food; point_of_interest; restaurant,[object Object]
The Venue Bar and Bistro,ChIJbS2WGBcbLxgR6Ly7SN_MvsY,"Karen, Nairobi, Kenya",Karen,-1.3237056,36.7081375,https://thevenue.ke/,https://maps.google.com/?cid=14321109124454792424,4.5,(906),dance,dance,fallback_original,rejected,0.25,bar; establishment; food; night_club; point_of_interest; restaurant,[object Object]
Nairobi Street Kitchen,ChIJt1Jlq00XLxgR_EqbyJNNUdE,"1870 Mpaka Rd, Nairobi, Kenya",,-1.2655732,36.8042136,http://www.nairobistreetkitchen.com/,https://maps.google.com/?cid=15082921924161653500,4.5,(3101),dance,dance,fallback_original,rejected,0.25,establishment; food; point_of_interest; restaurant,[object Object]
Tigoni Wellness Center - YOGA & SAUNA,ChIJSTvleQAnLxgRQ0O9KF3qiKM,"Limuru Town., Kenya",,-1.1258125,36.6801875,https://manimungai.com/yoga/,https://maps.google.com/?cid=11783926110851253059,4.9,(26),yoga,yoga,fallback_original,rejected,0.25,establishment; health; point_of_interest,[object Object]
Yoga by Gopiji Ram,ChIJtc1NkroXLxgRVhctXrPkAAY,"Mwanzi Rd, Nairobi, Kenya",,-1.2560928,36.8016057,https://www.linkedin.com/in/gopiji-ram-6985a079,https://maps.google.com/?cid=432597023257859926,5,(1),yoga,yoga,fallback_original,rejected,0.25,establishment; point_of_interest,[object Object]
Yoga fitness center,ChIJxZm4yFMbLxgRKrPcFprQe9o,"Bloomfield apartment, Muringa Rd, Nairobi, Kenya",,-1.2959778,36.7778135,https://www.healingclinictherapycentre.com/,https://maps.google.com/?cid=15743406282630804266,,,yoga,yoga,fallback_original,rejected,0.25,establishment; point_of_interest,[object Object]
Yogue Body & Mind,ChIJK6x07BQTQBgRvHyJeObNtQU,"9th Floor, Sea View, Opposite Jumeirah Beachfront, First Tower Nyandarua Rd, Mombasa, Kenya",,-4.0397911,39.7132606,https://www.getyogue.com/,https://maps.google.com/?cid=411461330722716860,5,(3),yoga,yoga,fallback_original,rejected,0.25,establishment; gym; health; point_of_interest,[object Object]
Master Benjamin M Joseph,ChIJWeXFYGURLxgRS3ejAsTB0JM,"Koinange St, Nairobi, Kenya",,-1.2836757,36.8185948,http://masterbenjaminkicker.www.co.ke/,https://maps.google.com/?cid=10651226166333241163,,,martial-arts,martial-arts,fallback_original,rejected,0.25,establishment; health; point_of_interest,[object Object]
Karate by Lucas wanyama,ChIJAauhI9MXLxgRs-3LsmkyIq4,"Mathare, Ruiru, Kenya",Mathare,-1.265672,36.8583732,https://www.karatebylucaswanyama.com/,https://maps.google.com/?cid=12547646941360287155,,,martial-arts,martial-arts,fallback_original,rejected,0.25,establishment; health; point_of_interest,[object Object]
Kick Fitness Gym (Eastern Bypass - Kamakis),ChIJMXHvrKdBLxgR4Jc7J52vKm8,"Kamakis at Total petrol station opposite Greenspot, Ruiru Bypass, Kenya",,-1.168851,36.96699330000001,https://www.kickfitnessgym.com/,https://maps.google.com/?cid=8010407976734791648,4.4,(13),martial-arts,martial-arts,fallback_original,rejected,0.25,establishment; gym; health; point_of_interest,[object Object]
Impact Chef and Hospitality Academy,ChIJpxR_8rkRLxgRP4Hyl1YQvN4,"Impact Chefs & Hospitality Academy, South Gate Center, Mukoma Rd, Nairobi, Kenya",,-1.3109135,36.8359566,https://www.google.com/url?sa=t&source=web&rct=j&url=https://impactchefsacademy.com/&ved=2ahUKEwj74Yf2vsD1AhU08uAKHVqQBK4QFnoECCkQAQ&usg=AOvVaw3rbooLGoebwKSiR0nTLAAU,https://maps.google.com/?cid=16049721136144089407,4.9,(83),low-impact-training,low-impact-training,fallback_original,rejected,0.25,establishment; point_of_interest; university,
Mind Ninjas EQ,ChIJsxW3ksEXLxgRwKOPEBcm6oE,"My School (Montessori) LTD, Westlands, Lower Kabete Road, Opposite Sarit Centre, Nairobi, Kenya",Westlands,-1.2592807,36.8027813,https://www.udemy.com/course/my-feelings-course-for-4-7-year-olds/?couponCode=MINDNINJAS,https://maps.google.com/?cid=9361336655946949568,5,(10),low-impact-training,low-impact-training,fallback_original,rejected,0.25,establishment; point_of_interest,[object Object]
Sparkling taekwondo sport,ChIJI8QMrPIfLxgReN2__cnfVpQ,"Rungiri, Kenya",,-1.2471951,36.6790986,https://sparklingtaekwondo.com/,https://maps.google.com/?cid=10688976824249081208,5,(3),martial-arts,martial-arts,fallback_original,rejected,0.25,establishment; point_of_interest,[object Object]
Art - Home,ChIJOzUD2BsRLxgRXiKDVYzkKzo,"No. 2064, Machakos, Machakos Rd, Nairobi City, Kenya",,-1.2990294,36.8324688,http://arthomekenya.kbo.co.ke/home,https://maps.google.com/?cid=4191695169579590238,4,(1),martial-arts,martial-arts,fallback_original,rejected,0.25,establishment; health; point_of_interest; store,[object Object]
Edu 360~ AI in Learning,ChIJj2LD4w0RLxgRzZ4m1eUnxLw,"141, Nairobi, Kenya",,-1.3009949,36.7848706,https://assessment.peardeck.com/login,https://maps.google.com/?cid=13602040642642812621,,,martial-arts,martial-arts,fallback_original,rejected,0.25,establishment; health; point_of_interest,
SelfDefense Kenya Pepperspray Taser security,ChIJHbvc3nYRLxgRQnhAtMAOzj8,"3rd Floor Store C6, Sasa Mall, Along Moi Ave, Nairobi, Kenya",,-1.2856577,36.8253574,https://linktr.ee/SelfDefenseKenya_Pepperspray,https://maps.google.com/?cid=4597628490412488770,,,martial-arts,martial-arts,fallback_original,rejected,0,establishment; health; local_government_office; point_of_interest,
Magnificent Outdoors,ChIJ75Qd_TMRLxgRULM6NHmNFrY,"St. Ellis House, 6th floor. City Hall Way, Wabera St, Nairobi, Kenya",,-1.2864906,36.8228521,https://magnificentoutdoors.com/,https://maps.google.com/?cid=13120830116097340240,4.9,(58),outdoors,outdoors,fallback_original,rejected,0.25,clothing_store; establishment; point_of_interest; store,[object Object]
El'barbera Outdoor Stores,ChIJtbisWeIbLxgRSgM7jUxnZ5A,"Langiri Rd, Nairobi, Kenya",,-1.3024373,36.7792677,https://wa.me/c/254798575015,https://maps.google.com/?cid=10405399042547450698,4.9,(45),outdoors,outdoors,fallback_original,rejected,0.25,clothing_store; establishment; point_of_interest; store,
Hiking Outdoor Gear Hub,ChIJ74JZV3o_LxgRx8K5TRLNIUA,"3rd Floor, Room No., D39, Mountain Mall, Thika Rd, Nairobi, Kenya",,-1.2328502,36.8737872,http://www.hikingoutdoorhub.com/,https://maps.google.com/?cid=4621200171155964615,4.9,(36),outdoors,outdoors,fallback_original,rejected,0.25,clothing_store; establishment; point_of_interest; store,[object Object]
Swatprime Outdoors,ChIJX0QKmPkRLxgRv1GRl4dYeD4,"Old Nation House, Tom Mboya St, Nairobi, Kenya",,-1.281906,36.8225822,https://wa.me/c/254706406576,https://maps.google.com/?cid=4501445166943523263,5,(2),outdoors,outdoors,fallback_original,rejected,0.25,establishment; point_of_interest; store,
Husky Outdoor Equipment Ltd - KE,ChIJ504BBkgXLxgROrMoIjWWGO8,"38 Lusaka Rd, Nairobi, Kenya",,-1.3005588,36.8359764,http://www.huskyafrica.com/,https://maps.google.com/?cid=17228685529456358202,4.7,(12),outdoors,outdoors,fallback_original,rejected,0.25,establishment; point_of_interest,
Outdoor Furniture Kenya,ChIJqxURSNoXLxgRrkw5wXKc8V4,"Kay Godowns B11, Mombasa Road, Nairobi, Kenya",,-1.3376945,36.8939931,https://outdoorfurniturekenya.com/,https://maps.google.com/?cid=6841421325634456750,4.4,(7),outdoors,outdoors,fallback_original,rejected,0.25,establishment; furniture_store; home_goods_store; point_of_interest; store,[object Object]
Nairobi Kids Trampolines Outdoor & Indoor Children's Trampolines,ChIJJb0BjMwXLxgRlHN2NIBHGgI,"Opposite Maendeleo, View Park Towers, Nairobi, Kenya",,-1.2827827,36.8162262,https://www.kidstrampolines.co.ke/,https://maps.google.com/?cid=151512153431896980,5,(9),outdoors; trampoline,trampoline,website_extracted,rejected,0.25,establishment; point_of_interest; store,
Outdoor Yard Kenya,ChIJZ39OAgATLxgRmtE0TT3LTBM,"Mombasa Road, Nairobi, Kenya",,-1.3387051,36.8924314,https://outdooryardkenya.com/,https://maps.google.com/?cid=1390709849099391386,,,outdoors,outdoors,fallback_original,rejected,0,establishment; point_of_interest,
Nubian OUTDOOR,ChIJJxzsqzsRLxgRxinNkb4YtHU,"Muindi mbingu street opp jivanjee gardens, Nairobi, Kenya",,-1.2817265,36.818865,https://www.jumia.co.ke/bush-life-equipments/,https://maps.google.com/?cid=8481431205014481350,,,outdoors,outdoors,fallback_original,rejected,0.25,establishment; point_of_interest,
Vitendi Ltd - Window Blinds & Outdoor Furniture,ChIJSf_ZpW4XLxgRsX8_wECK5eM,"2nd Floor 62, INSPOHUB Building, 62 Muthithi Rd, Nairobi, Kenya",,-1.2689705,36.8097205,http://www.vitendi.co.ke/,https://maps.google.com/?cid=16421683626984308657,4.6,(40),outdoors,outdoors,fallback_original,rejected,0.25,establishment; furniture_store; home_goods_store; point_of_interest; store,
MINT Kenya,ChIJ23-EFYgZLxgRIhbLthjeBBE,"101 Manyani E Rd, Nairobi, Kenya",,-1.2607549,36.7753915,https://www.instagram.com/mint.kenya,https://maps.google.com/?cid=1226349196278961698,4.9,(20),outdoors,outdoors,fallback_original,rejected,0.25,establishment; gym; health; point_of_interest,
Amuse Kenya,ChIJ8U4QylXBdKcRaNjICSi2Lqs,"Thigiri Ln, Nairobi, Kenya",,-1.2408053,36.7954804,https://amusekenya.co.ke/,https://maps.google.com/?cid=12334996712493471848,4.6,(19),outdoors,outdoors,fallback_original,rejected,0.25,establishment; point_of_interest,
LIZAYA TRAINING INSTITUTE,ChIJ3UoYPOIRLxgRPAwbfw4lIxc,"Stanbank House, 2ND FLOOR Moi Ave, Nairobi, Kenya",,-1.2843813,36.8256156,https://lizaya.ac.ke/,https://maps.google.com/?cid=1667217031249464380,4.9,(90),outdoors,outdoors,fallback_original,rejected,0.25,beauty_salon; establishment; health; point_of_interest; school; spa,
Cliffitness (personal trainer),ChIJu76mHzMVLxgRZCfXpivt6vo,"indoor arena, Nairobi, Kenya",,-1.2254,36.897637,https://forms.gle/Jf8mkp4KWeh76b4p7,https://maps.google.com/?cid=18080524425770772324,5,(7),personal-training,personal-training,fallback_original,rejected,0.25,establishment; health; point_of_interest,
MAASAIFIT - Personal Training | Sports Therapy,ChIJwxewwqMQLxgRB36KLO7wAVI,"Harmony Centre, 43, General Mathenge Drive, Nairobi, Kenya",,-1.2528708,36.7962136,http://maasaifit.com/,https://maps.google.com/?cid=5909269091826957831,5,(12),personal-training,personal-training,fallback_original,rejected,0.25,establishment; gym; health; point_of_interest,[object Object]
MARKSILA254,ChIJd87JKg8RLxgR3bRHOTDZd2w,"Nairobi, Kenya",,-1.3020221,36.7842124,https://marksila254.com/,https://maps.google.com/?cid=7815954479467443421,5,(3),personal-training,personal-training,fallback_original,rejected,0.25,establishment; gym; health; point_of_interest; school,[object Object]
Personal trainer Prince Arakaki,ChIJo_KwGnUZLxgR5MhHAlMFDQ8,"Lavington, Nairobi, Kenya",Lavington,-1.278937,36.7777984,https://www.instagram.com/p/CE0zKOrjcrU/?utm_medium=copy_link,https://maps.google.com/?cid=1084528939344840932,,,personal-training,personal-training,fallback_original,rejected,0.25,establishment; health; point_of_interest,
Pawami Health,ChIJ207vdBx_UYwRFINRC7MuvZA,"3099, Nairobi, Kenya",,-1.2962128,36.8089066,https://www.pawamihealth.co.ke/,https://maps.google.com/?cid=10429543658583851796,5,(2),prenatal-postnatal,prenatal-postnatal,fallback_original,rejected,0.25,establishment; health; point_of_interest,
Maggie's Pregnancy & Postpartum Spa,ChIJ8e4X0p4bLxgR959AIrIlrHQ,"31 Retail collective, Ngong Rd, Nairobi, Kenya",Ngong,-1.3211263,36.7094482,https://maggiespregnancyspa.co.ke/,https://maps.google.com/?cid=8407136051402940407,5,(14),prenatal-postnatal,prenatal-postnatal,fallback_original,rejected,0.25,establishment; point_of_interest; spa,
Esther Kimani (Doula and Lactation Manager),ChIJQQi2l-YZLxgRMoiPMc-rDvE,"PQ59+PM6, Nairobi, Kenya",,-1.2907233,36.7691471,https://www.linkedin.com/in/esther-kimani-6bb87135,https://maps.google.com/?cid=17370009719192651826,5,(3),prenatal-postnatal,prenatal-postnatal,fallback_original,rejected,0.25,establishment; health; point_of_interest,[object Object]
Binticare Maternity Consultancy,ChIJrSJb-yAXLxgRy-NCvNnD8y8,"Woodvale Cl, Nairobi, Kenya",,-1.2604942,36.8032693,http://www.binticarematernity.co.ke/,https://maps.google.com/?cid=3455320679057122251,5,(3),prenatal-postnatal,prenatal-postnatal,fallback_original,rejected,0.125,doctor; establishment; health; point_of_interest,
Pumwani Maternity Hospital,ChIJJ1hbnDURLxgReouswtoxn54,"Pumwani, Nairobi, Kenya",,-1.2806642,36.8454773,https://nairobi.go.ke/pumwani-maternity-hospital,https://maps.google.com/?cid=11429909194928327546,3.8,(135),prenatal-postnatal,prenatal-postnatal,fallback_original,rejected,0.25,establishment; health; hospital; point_of_interest,[object Object]
Dr. Wanjiku Ndung’u-Gynaecologist Oakleigh Healthcare Services.,ChIJ91Uw1aIRLxgRLNGAuEJ40cY,"5th avenue office suites ,6th floor 6-7, Nairobi, Kenya",,-1.2958687,36.8081403,http://www.oakleighgynaecology.co.ke/,https://maps.google.com/?cid=14326364117600882988,4.9,(56),prenatal-postnatal,prenatal-postnatal,fallback_original,rejected,0,doctor; establishment; health; point_of_interest,
Trusted Touch Nursing Home Services(Newborn Agency),ChIJo5MZWq4dLxgRqY6aheq6Sp0,"PM7P+WV, Nairobi, Kenya",,-1.2851875,36.6871875,https://trustedtouchnursing.co.ke/,https://maps.google.com/?cid=11334076928657886889,5,(10),prenatal-postnatal,prenatal-postnatal,fallback_original,rejected,0.125,establishment; health; point_of_interest,
Still A Mum,ChIJSbQgRQsbLxgRn-pgMbVJP7o,"Branton Court, Ndemi Lane, Ngong Nairobi KE, Road, Kenya",Ngong,-1.3007863,36.7776043,http://www.stillamum.com/,https://maps.google.com/?cid=13420526457153710751,5,(2),prenatal-postnatal,prenatal-postnatal,fallback_original,rejected,0.25,establishment; point_of_interest,[object Object]
The Nairobi Hospital,ChIJUyvTVZUQLxgR8HXGloXtL3Q,"Argwings Kodhek Rd, Nairobi, Kenya",,-1.2953674,36.8039183,http://thenairobihosp.org/,https://maps.google.com/?cid=8372171390321063408,3.3,(547),prenatal-postnatal,prenatal-postnatal,fallback_original,rejected,0,establishment; health; hospital; point_of_interest,
Huruma Hospital Mathare North Annex,ChIJ2U6c4psVLxgRh49lUgrXl0k,"72934, Raila Odinga Rd, Nairobi, Kenya",,-1.2491945,36.874495,https://www.hurumahospitalmathare.org/,https://maps.google.com/?cid=5302943525584080775,5,(6),prenatal-postnatal,prenatal-postnatal,fallback_original,rejected,0.25,establishment; health; hospital; point_of_interest,
Tash Baby Shop,ChIJv1qosqQXLxgRJd8x16snT3k,"45 Westlands Rd, Nairobi, Kenya",Westlands,-1.2701464,36.8095036,https://tashbabystore.co.ke/,https://maps.google.com/?cid=8741249020752682789,3.9,(31),prenatal-postnatal,prenatal-postnatal,fallback_original,rejected,0.25,clothing_store; establishment; point_of_interest; store,[object Object]
NILA BABY SHOP NAIROBI UTAWALA,ChIJ5T0hyQltLxgRfY4UGhitTjI,"EMBAKASI, Nairobi, Kenya",Embakasi,-1.2917075,36.9463037,https://www.nilababyshop.com/,https://maps.google.com/?cid=3625025069108203133,4.6,(711),prenatal-postnatal,prenatal-postnatal,fallback_original,rejected,0.25,clothing_store; establishment; point_of_interest; store,
Usawa Reproductive Health Center,ChIJ6XhfOg0dLxgR9O_8r0W9EFM,"Nairobi, Kenya",,-1.3376074,36.6776298,https://usawareproductive.org/,https://maps.google.com/?cid=5985492011778371572,5,(5),prenatal-postnatal,prenatal-postnatal,fallback_original,rejected,0.25,establishment; health; point_of_interest,[object Object]
Park Ville Medical Center - Parklands,ChIJCbQKev0XLxgRrF1L2WSLLO8,"House 62, Nairobi, Kenya",,-1.2600822,36.8285805,https://www.parkvillemedical.org/,https://maps.google.com/?cid=17234303139298631084,5,(8),prenatal-postnatal,prenatal-postnatal,fallback_original,rejected,0.125,establishment; health; hospital; point_of_interest,
Gertrude's Children's Hospital - Nairobi West Medical Centre,ChIJM8BFs_4QLxgR88JgzY6U9m4,"T-Mall, Nairobi, Kenya",,-1.3122375,36.8170089,https://www.gerties.org/branches/embakasi-clinic-embakasi/,https://maps.google.com/?cid=7995741529494831859,3.3,(51),prenatal-postnatal,prenatal-postnatal,fallback_original,rejected,0.25,establishment; health; hospital; point_of_interest,[object Object]
BARIKA MEDICAL CENTRE 成功医疗,ChIJt1IxLR8RLxgR22NEfTVdJc8,"HURLINGHAM ROSE AVENUE, OPPOSITE WARIDI PARADISE HOTEL NAIROBI, HURLINGHAM NAIROBI, Kenya",Hurlingham,-1.2947598,36.7954552,http://www.barikamedicalcentre.com/,https://maps.google.com/?cid=14926439024305660891,4.2,(133),prenatal-postnatal,prenatal-postnatal,fallback_original,rejected,0.125,establishment; health; hospital; point_of_interest,
Dignified Caregivers Kenya,ChIJ5218pFwXLxgRw2ZR_D-Sh14,"8th floor Rm, Cianda House, 803 Koinange St, Nairobi, Kenya",,-1.2832194,36.8180253,http://www.dcti.co.ke/,https://maps.google.com/?cid=6811573764934952643,5,(18),prenatal-postnatal,prenatal-postnatal,fallback_original,rejected,0.25,establishment; health; point_of_interest,[object Object]
Cana Hospital Super-specialty,ChIJRWjP_NwHLxgRlme1vPuhW_k,"Magadi road, Rimpa Rd, Kenya",,-1.4211217,36.7060764,http://www.canahospital.co.ke/,https://maps.google.com/?cid=17968133240899594134,4.1,(90),prenatal-postnatal,prenatal-postnatal,fallback_original,rejected,0.25,establishment; health; hospital; point_of_interest,[object Object]
Keliam Kids Babyshop Kilimani Nairobi,ChIJVVgb6nsRLxgRlVd92eOce5E,"Wood Ave, Nairobi, Kenya",,-1.2923509,36.7859642,http://www.keliamkids.com/,https://maps.google.com/?cid=10483145060055340949,4.9,(7),prenatal-postnatal,prenatal-postnatal,fallback_original,rejected,0,clothing_store; establishment; point_of_interest; store,
Nairobi Florist Fresh Flowers,ChIJb91IONIQLxgRLFwdHoyvLyw,"View Park Towers, Kenya Box 64086 Utalii St, Nairobi, Kenya",,-1.2827827,36.8162262,https://www.nairobiflorist.co.ke/,https://maps.google.com/?cid=3183956477909752876,4.9,(399),prenatal-postnatal,prenatal-postnatal,fallback_original,rejected,0.25,establishment; florist; point_of_interest; store,[object Object]
Access Afya Clinic - Kwa Ruben,ChIJbQNRq9cRLxgRcpipqV7ErTw,"Unnamed Road, Nairobi, Kenya",,-1.318641,36.8729167,http://www.accessafya.com/,https://maps.google.com/?cid=4372366724099053682,5,(3),prenatal-postnatal,prenatal-postnatal,fallback_original,rejected,0,establishment; health; hospital; point_of_interest,
Louella Maternity Collection,ChIJl0J1g3UMokoR1TtmJmOyXXY,"Digital Shopping Mall Shop, F10 Moi Ave, Nairobi, Kenya",,-1.2829496,36.8227619,http://www.louella.co.ke/,https://maps.google.com/?cid=8529169408225328085,5,(39),prenatal-postnatal,prenatal-postnatal,fallback_original,rejected,0.25,clothing_store; establishment; point_of_interest; store,[object Object]
Breejoz Babyshop & Maternity Collections,ChIJPUyXt_8RLxgRJp5Ly9yPh2U,"Star Mall, Tom Mboya St, Nairobi, Kenya",,-1.2825334,36.8235041,https://www.breejozbabyshop.co.ke/,https://maps.google.com/?cid=7315974298152967718,5,(3),prenatal-postnatal,prenatal-postnatal,fallback_original,rejected,0.25,clothing_store; establishment; point_of_interest; store,[object Object]
Benchmark Maternity Wear,ChIJM7udKSURLxgRQv9BIRQpqho,"Biashara St, Nairobi, Kenya",,-1.283099,36.8185482,http://www.bumpmaternitywear.co.ke/,https://maps.google.com/?cid=1921393357460995906,,,prenatal-postnatal,prenatal-postnatal,fallback_original,rejected,0.25,clothing_store; establishment; point_of_interest; store,[object Object]
BfSuma Health and Wellness Hub,ChIJCWnacDMRLxgR4OXPXNOtfbg,"Taifa road, Nairobi, Kenya",,-1.2875122,36.8243406,https://wa.me/message/RBAC5OXXWJLQA1,https://maps.google.com/?cid=13293972798374405600,5,(51),prenatal-postnatal,prenatal-postnatal,fallback_original,rejected,0.25,establishment; health; point_of_interest; store,
Femme Posh Collection,ChIJ50FpsNcQLxgRw_43CcbWaK4,"Jubilee Insurance Exchange, Mama Ngina St, Nairobi, Kenya",,-1.2855356,36.8232833,https://femmeposhcollection.com/,https://maps.google.com/?cid=12567530906223902403,4.1,(120),prenatal-postnatal,prenatal-postnatal,fallback_original,rejected,0.25,clothing_store; establishment; point_of_interest; store,[object Object]
Coptic Hospital-Main Hospital,ChIJsVn17DARLxgRoQqCs7OD094,"Ngong Rd, Nairobi, Kenya",Ngong,-1.29763,36.7976097,http://coptichospitals.com/,https://maps.google.com/?cid=16056321904339978913,3.1,(818),prenatal-postnatal,prenatal-postnatal,fallback_original,rejected,0,establishment; health; hospital; point_of_interest,
"The Nairobi Women's Hospital, Mombasa Branch",ChIJtW_RpzITQBgRW_F-eAXPIrM,"Moi Ave, Mombasa, Kenya",,-4.061107199999999,39.663083,http://www.nwh.co.ke/,https://maps.google.com/?cid=12908107104400634203,4.4,(35),prenatal-postnatal,prenatal-postnatal,fallback_original,rejected,0.125,establishment; health; hospital; point_of_interest,
Nairobi IVF Centre,ChIJOWY5OsAQLxgRLiUAOG2v6RA,"Landmark Plaza, Argwings Kodhek Rd, Nairobi, Kenya",,-1.2947749,36.8054,https://nairobiivf.com/,https://maps.google.com/?cid=1218698057806259502,3.4,(59),prenatal-postnatal,prenatal-postnatal,fallback_original,rejected,0.125,establishment; health; point_of_interest,
Meridian Equator Hospital,ChIJN28GJ3ARLxgRaWBiXCKP2Rc,"Bukani Rd, Nairobi, Kenya",,-1.3078028,36.8243208,http://www.mhg.co.ke/,https://maps.google.com/?cid=1718562110560165993,3.6,(79),prenatal-postnatal,prenatal-postnatal,fallback_original,rejected,0.25,establishment; health; hospital; point_of_interest,
House of Leather & Gifts - NHC,ChIJ1Wkc00EXLxgRQYnZxROUKpI,"Aga Khan Walk, Nairobi, Kenya",,-1.2886428,36.8262218,http://www.houseofleatherkenya.co.ke/,https://maps.google.com/?cid=10532393491203983681,4.2,(2872),prenatal-postnatal,prenatal-postnatal,fallback_original,rejected,0.25,establishment; home_goods_store; point_of_interest; store,[object Object]
Goodlife Pharmacy Kenyatta Avenue,ChIJAwHo2dAQLxgRDZp5Ec8i9FE,"Kenyatta Ave, Nairobi, Kenya",,-1.2853715,36.8190588,http://www.goodlife.co.ke/,https://maps.google.com/?cid=5905383284136319501,3.6,(24),prenatal-postnatal,prenatal-postnatal,fallback_original,rejected,0.25,establishment; health; pharmacy; point_of_interest; store,[object Object]
Goodlife Pharmacy City Square,ChIJZVXK7CcRLxgRFH-8AoD472Q,"Harambee Ave, Nairobi, Kenya",,-1.2882571,36.8261507,http://www.goodlife.co.ke/,https://maps.google.com/?cid=7273305151912050452,4.3,(7),prenatal-postnatal,prenatal-postnatal,fallback_original,rejected,0.25,establishment; health; pharmacy; point_of_interest; store,[object Object]
The Nairobi Hospital Anderson Medical Center,ChIJvRN3luoQLxgRMKyJJ0gkOZA,"00100, Argwings Kodhek Road 1st floor, Anderson Centre P O 30026, Nairobi, Kenya",,-1.2965748,36.8044024,https://thenairobihosp.org/clinical-services/anderson-specialty-clinics,https://maps.google.com/?cid=10392377507453709360,3.7,(51),prenatal-postnatal,prenatal-postnatal,fallback_original,rejected,0,doctor; drugstore; establishment; health; hospital; pharmacy; point_of_interest; store,
The Nairobi Hospital Convention Centre,ChIJwTRplHgRLxgRNycRYlsBMqU,"Argwings Kodhek Rd, Nairobi, Kenya",,-1.2971017,36.8041304,https://thenairobihosp.org/other-services/convention-centre,https://maps.google.com/?cid=11903578257092585271,4.6,(389),prenatal-postnatal,prenatal-postnatal,fallback_original,rejected,0,establishment; point_of_interest,
Gender Based Violence Recovery Centre,ChIJ5bfiWewQLxgRFuhE93Rdqqo,"Gatina Nairobi, Argwings Kodhek Rd, North, Kenya",,-1.300703,36.806466,http://gvrc.or.ke/,https://maps.google.com/?cid=12297744489434638358,4.3,(10),prenatal-postnatal,prenatal-postnatal,fallback_original,rejected,0.25,establishment; health; hospital; point_of_interest,[object Object]
St. Johns Community Centre,ChIJMxxV_DURLxgRpg_08ljJFUA,"Munyema St, Nairobi, Kenya",,-1.2825341,36.8452333,https://sjccpumwani.org/,https://maps.google.com/?cid=4617818376808697766,4.2,(154),prenatal-postnatal,prenatal-postnatal,fallback_original,rejected,0,establishment; point_of_interest,
Ladnan Hospital,ChIJQ2wfJOkQLxgR0rmpMkWFXhE,"Nairobi, Kenya",,-1.2699645,36.8408989,http://www.ladnan-hospital.com/,https://maps.google.com/?cid=1251584278704798162,3.8,(97),prenatal-postnatal,prenatal-postnatal,fallback_original,rejected,0.25,establishment; health; hospital; point_of_interest,[object Object]
Run AI Technologies Limited,ChIJCQlKgrMRLxgR5nZD8oeOsns,"Shop Number 206, Montana Mall, Gaborone Rd, Nairobi, Kenya",,-1.2836352,36.827328,https://www.runaitechnologies.com/,https://maps.google.com/?cid=8913343327055869670,5,(4),running,running,fallback_original,rejected,0.25,electronics_store; establishment; point_of_interest; store,[object Object]
The Running Game,ChIJ_wDO4uURLxgRfUP09OqC2Ww,"Standard St, Nairobi, Kenya",,-1.2852705,36.8214668,http://naiconnect.co.ke/,https://maps.google.com/?cid=7843444171686036349,,,running,running,fallback_original,rejected,0.25,establishment; point_of_interest,[object Object]
KmusiK Studios,ChIJ0T_r-xQZLxgRmTvsZ0DIuEg,"Salima Elegance, Red Hill Road, Kenya",,-1.2020342,36.760583,https://kmusikstudios.beatstars.com/,https://maps.google.com/?cid=5240158345392569241,4.7,(36),running,running,fallback_original,rejected,0,establishment; point_of_interest; store,
Kamavazi Studio,ChIJTQArCCA-LxgRTW4pqpT8z9s,"Roysambu, Lumumba Dr, Nairobi, Kenya",Roysambu,-1.2167329,36.8903387,https://studiokamavazi.pixieset.com/,https://maps.google.com/?cid=15839156129925525069,4.8,(56),running,running,fallback_original,rejected,0.25,establishment; point_of_interest,[object Object]
Nairobi Club,ChIJN5dgHcoRLxgR2zdjWbITEXc,"Ngong Rd, North, Kenya",Ngong,-1.2957864,36.8098476,http://www.nairobiclub.com/,https://maps.google.com/?cid=8579660421842286555,4.3,(3249),running,running,fallback_original,rejected,0.25,establishment; point_of_interest,[object Object]
Barrels and Stools Lounge,ChIJx6a0lEgXLxgRj73iO8fkBf0,"10 Lower Kabete Rd, Nairobi, Kenya",,-1.259599,36.8025443,https://instagram.com/barrelsandstools_ke?igshid=YmMyMTA2M2Y=,https://maps.google.com/?cid=18232230210833661327,4.4,(291),dance,dance,fallback_original,rejected,0.25,establishment; food; point_of_interest; restaurant,
Brew Bistro Fortis,ChIJr1BwBxQXLxgRTe46eDlWIq8,"Woodvale Groove, Westlands Fortis Tower, Nairobi, Kenya",Westlands,-1.264758,36.8042338,https://brewbistrokenya.co.ke/,https://maps.google.com/?cid=12619743910675803725,4.4,(5866),dance,dance,fallback_original,rejected,0,bar; establishment; food; point_of_interest; restaurant,
Brew Bistro and Lounge,ChIJE71F92saLxgR88vd58P_VBw,"671 Ngong Rd, Nairobi, Kenya",Ngong,-1.2992499,36.7655091,https://brewbistrokenya.co.ke/,https://maps.google.com/?cid=2041537747979455475,4.4,(3369),dance,dance,fallback_original,rejected,0,bar; establishment; food; point_of_interest; restaurant,
Nani's Wonderland,ChIJHe3g7CMPLxgR6f0X7IfEGcg,"Nairobi, Kenya",,-1.3924598,36.8180639,https://www.kitengela.com/products/experience-nani-s-wonderland,https://maps.google.com/?cid=14418771770063977961,4.5,(120),strength-training,strength-training,fallback_original,rejected,0.25,art_gallery; establishment; museum; point_of_interest,[object Object]
Brush Tu,ChIJ2ep2WwUULxgRxO8h5iqmldA,"379 Ol Leleshwa Rd, Nairobi, Kenya",,-1.2716204,36.8783187,http://www.brushtu.org/,https://maps.google.com/?cid=15030102034598719428,4.7,(74),strength-training,strength-training,fallback_original,rejected,0.25,establishment; point_of_interest,[object Object]
One Off Contemporary Art Gallery Ltd.,ChIJmxqy51Y9LxgRbefsvQNYfuY,"Rosslyn Lone Tree Estate, off Limuru Road, Nairobi City, Kenya",Rosslyn,-1.217529,36.7906373,http://www.oneoffcontemporaryart.com/,https://maps.google.com/?cid=16608809248883533677,4.5,(358),strength-training,strength-training,fallback_original,rejected,0.25,art_gallery; establishment; point_of_interest; tourist_attraction,
Western Cosmetics & Supplements: A Health & Beauty Store,ChIJuQNAz3ERLxgRAZUSWVHUWO8,"Junction Of Kenyatta Avenue, and, Kimathi St, Nairobi, Kenya",,-1.2838994,36.8227744,http://westerncosmetics.com/,https://maps.google.com/?cid=17246768218867143937,5,(293),strength-training,strength-training,fallback_original,rejected,0.25,establishment; food; health; point_of_interest; store,
Egware Museum,ChIJ4yoRtYQXLxgR8vrJbDQ1NHA,"Sarit Centre, Nairobi, Kenya",,-1.2614084,36.8021835,https://egwaremuseum.com/,https://maps.google.com/?cid=8085145730316630770,5,(12),strength-training,strength-training,fallback_original,rejected,0.25,establishment; museum; point_of_interest,
Skinsol_ Aesthetics_clinic,ChIJpwB6wHoXLxgRxW7td6Vtbkk,"Brickcourt House, Nairobi, Kenya",,-1.2646186,36.804937,http://www.skinsolaesthetics.com/,https://maps.google.com/?cid=5291287169655992005,4.2,(200),strength-training,strength-training,fallback_original,rejected,0.25,beauty_salon; establishment; hair_care; health; point_of_interest; spa,[object Object]
Matbronze Art Gallery & Foundry,ChIJUeXToAUFLxgR-QClbc-Zv14,"Kifaru Ln, Nairobi, Kenya",,-1.3657346,36.7476703,http://www.matbronze.com/,https://maps.google.com/?cid=6827344676293771513,4.5,(320),strength-training,strength-training,fallback_original,rejected,0,art_gallery; cafe; establishment; food; point_of_interest; tourist_attraction,
Bristles Arts and Crafts Supplies,ChIJ46VypOARLxgRlXVn-iC4a04,"Ronald Ngala St, Nairobi, Kenya",,-1.2850087,36.8289255,https://bristlesartsandcrafts.co.ke/,https://maps.google.com/?cid=5650812609245967765,4.4,(55),strength-training,strength-training,fallback_original,rejected,0.25,establishment; point_of_interest; store,[object Object]
Kitengela Glass - Studio,ChIJjQ0GhyMPLxgRJRDFP3e9drQ,"5 Glass Lane, Tuala. Follow signs, not Google directions off Magadi Rd from Bomas of Kenya off Masai Lodge Rd 1st left after mosque, JR58+3V2, Glass Lane, Nairobi, Kenya",,-1.3922976,36.8171159,http://www.kitengela.glass/,https://maps.google.com/?cid=13003789293947523109,4.6,(1387),strength-training,strength-training,fallback_original,rejected,0,cafe; establishment; food; furniture_store; home_goods_store; point_of_interest; store; tourist_attraction,
Body By Arziki Kenya,ChIJX03m4OMRLxgRZTP6tdom0ro,"Maralal Oasis, in Hurlingham, Argwings Kodhek Rd, Nairobi, Kenya",Hurlingham,-1.2941539,36.7951469,https://arzikiaesthetics.com/our-services/,https://maps.google.com/?cid=13461864956961633125,4.4,(7),strength-training,strength-training,fallback_original,rejected,0.25,establishment; health; point_of_interest; spa,[object Object]
Kitengela Glass - Village Market,ChIJL-qBIcIXLxgRJV8zeAjJTCg,"Limuru Rd, Nairobi, Kenya",,-1.2292094,36.80506800000001,http://www.kitengela.glass/,https://maps.google.com/?cid=2903916897960681253,4.6,(100),strength-training,strength-training,fallback_original,rejected,0,establishment; furniture_store; home_goods_store; point_of_interest; store,
Kitengela Glass - Junction Mall,ChIJ2TXBV2oaLxgRHagv0VAc4eU,"The Junction, Dagoretti Corner, Ngong Rd, Nairobi, Kenya",Ngong,-1.2981795,36.7625248,http://www.kitengela.glass/,https://maps.google.com/?cid=16564552037877917725,4.3,(97),strength-training,strength-training,fallback_original,rejected,0,establishment; furniture_store; home_goods_store; point_of_interest; store,
Adena Wellness Centre,ChIJp01bAusZLxgRvkfW8h2Kfsk,"The Mall, 2nd Floor Ring Rd Parklands, Nairobi, Kenya",Parklands,-1.264457,36.802669,http://adenawellness.co.ke/,https://maps.google.com/?cid=14519194109921871806,4.3,(6),strength-training,strength-training,fallback_original,rejected,0.25,establishment; point_of_interest; spa,
Siro Strength Gym Ground Zero,ChIJyeyDHfoTLxgRiYXitQxgQLc,"Nairobi -Embakasi , Kwa Ndege, Near Boom Supermarket, Nairobi, Kenya",Embakasi,-1.3035781,36.900333,https://wa.link/3hchjn,https://maps.google.com/?cid=13204659715157689737,,,strength-training,strength-training,fallback_original,rejected,0.25,establishment; gym; health; point_of_interest,
Samah Fitness Supplies,ChIJBc_sj7ERLxgREmlg_dx59o8,"Moi Ave, Nairobi, Kenya",,-1.2856577,36.8253574,https://samahfitness.co.ke/,https://maps.google.com/?cid=10373612781745236242,4.8,(12),stretching,stretching,fallback_original,rejected,0.25,establishment; gym; health; point_of_interest,[object Object]
Orthodynamic Limited,ChIJfWcbmykRLxgR24l0C8nb0Gc,"PR8G+FV3, Gaborone Rd, Nairobi, Kenya",,-1.2841501,36.8271224,https://www.orthodyna.com/,https://maps.google.com/?cid=7480720637589490139,4.7,(108),stretching,stretching,fallback_original,rejected,0.25,establishment; health; physiotherapist; point_of_interest; store,[object Object]
Thai-Chi by Sarova,ChIJczkXNlcZLxgRKM-lOIYP0Dc,"102 Manyani E Rd, Nairobi, Kenya",,-1.2598879,36.7751901,https://www.sarovahotels.com/restaurant-bar/thai-chi-by-sarova.html,https://maps.google.com/?cid=4021731536392277800,4.5,(418),mind-body,mind-body,fallback_original,rejected,0.25,establishment; food; point_of_interest; restaurant,[object Object]
Thai Chi Restaurant,ChIJnfDwxNYQLxgRUCOsvTqkkxk,"Kimathi St, Nairobi City, Kenya",,-1.2842256,36.82292109999999,https://www.sarovahotels.com/stanley-nairobi//culinary-experiences/thai-chi.html,https://maps.google.com/?cid=1842997244721898320,4.4,(295),mind-body,mind-body,fallback_original,rejected,0.25,establishment; food; point_of_interest; restaurant,[object Object]
Playland Amusement Park,ChIJUVoSL8kRLxgRCNdmOS_p_l4,"Nextgen mall, Mombasa Road, Nairobi, Kenya",,-1.3237716,36.84403710000001,http://www.playland.co.ke/,https://maps.google.com/?cid=6845164872685508360,4.3,(458),trampoline,trampoline,website_extracted,rejected,0.25,amusement_park; establishment; point_of_interest,
Trampolines Suppliers Kenya,ChIJg2WtKy4RLxgRkMpu5FRDTrY,"House 3rd floor, T5 on, Kenya Complex, Koinange St, Nairobi, Kenya",,-1.281442,36.8172778,https://www.trampolinesuppliers.co.ke/,https://maps.google.com/?cid=13136511194975095440,5,(9),trampoline,trampoline,website_extracted,rejected,0.25,establishment; point_of_interest,
Memorable kids parties,ChIJuwxx6k4ZLxgRSejyzNTcmXw,"Waiyaki Wy, Nairobi, Kenya",,-1.2693247,36.7415806,http://www.memorablekidsparties.co.ke/,https://maps.google.com/?cid=8978450138669443145,4.9,(658),trampoline,trampoline,fallback_original,rejected,0.25,establishment; point_of_interest,
Gigafit Sport & Fitness Equipment,ChIJvfFmPOIRLxgRk2tmk3SaUok,"Nyakatch Lane, Off Moi Avenue Gatakaini House 1, Shop 1, Ground Floor, Nairobi, Kenya",,-1.2811448,36.8220761,https://smartplyconnect.com/biller_products/gigafit,https://maps.google.com/?cid=9895141156766247827,5,(37),strength-training,strength-training,website_extracted,rejected,0.25,establishment; point_of_interest,
Fit Madadi Gym,ChIJ_6vTPB4bLxgRHamsAAS4LbU,"Kawangware Primary Road Kabiro Dagoreti North, Nairobi, Kenya",Kawangware,-1.290287,36.7495676,https://youtu.be/aYP78ddvPiE,https://maps.google.com/?cid=13055293222147631389,4.6,(43),strength-training,strength-training,fallback_original,rejected,0.25,establishment; gym; health; point_of_interest,
Lennix Gym Ruaka,ChIJlZrMjXcjLxgRAf0PcAirpbw,"Ruaka, Kenya",,-1.2021203,36.7585461,https://lennixgym.co.ke/,https://maps.google.com/?cid=13593459103015894273,4.7,(165),strength-training,strength-training,fallback_original,rejected,0.25,establishment; gym; health; point_of_interest,
Ignite Fitness Studio and Gym,ChIJp-Yf8iXoloURZH4jYxXFh4A,"Nuru Shopping center opposite jkuat main gate, Juja, Kenya",,-1.1019967,37.0135057,https://ignitefitnessstudioandgym.co.ke/,https://maps.google.com/?cid=9261587854358969956,4.7,(19),strength-training,strength-training,fallback_original,rejected,0.25,establishment; gym; health; point_of_interest,[object Object]
Nairobi Meditation,ChIJNd3a9JYQLxgRcia28EHNc8Y,"B304, Century Garden, Kindaruma Rd, Nairobi, Kenya",,-1.297478,36.7971817,http://meditationnairobi.org/,https://maps.google.com/?cid=14299998924926494322,4.4,(5),yoga,yoga,fallback_original,rejected,0.25,establishment; health; point_of_interest,[object Object]
Enso Kenya,ChIJl9iLOwAZLxgRWNRGwtBXcBY,"2 Kitisuru Rd, Nairobi, Kenya",,-1.2370687,36.7626682,https://ensokenya.com/,https://maps.google.com/?cid=1616888820350243928,5,(1),yoga,yoga,website_extracted,rejected,0.25,establishment; health; point_of_interest,